{"State":{
	"state_name":"Utah",
	"state_id":1,
	"country":"US"},

"cnt":2,
"list":[{
	"trail_id":1,"trailhead":{"lat":37.13479,"lng":-113.59747},"trail_name":"City Creek to Owen's Loop - 2.7 miles",
  	"page":"http://chiseloutdoors.com/beta/trails/city_creek/"},

  	{"trail_id":2,"trailhead":{"lat":37.24653,"lng":-113.62816},"trail_name":"Cinder Cone - 1 mile",
  	"page":"http://chiseloutdoors.com/beta/trails/cinder_cone/"},

  	{"trail_id":3,"trailhead":{"lat":37.21949,"lng":-113.63804},"trail_name":"Gila to Lava Flow & White Rocks - 1.5 miles",
  	"page":"http://chiseloutdoors.com/beta/trails/gila/"},

  	{"trail_id":4,"trailhead":{"lat":37.22001,"lng":-113.64933},"trail_name":"Lava Flow - .9 miles",
  	"page":"http://chiseloutdoors.com/beta/trails/lava_flow/"},

  	{"trail_id":5,"trailhead":{"lat":37.11888,"lng":-113.58288},"trail_name":"Owen's Loop - 1.4 miles",
  	"page":"http://chiseloutdoors.com/beta/trails/owens_loop/"},

  	{"trail_id":6,"trailhead":{"lat":37.12612,"lng":-113.58179},"trail_name":"Pioneer Hills - .7 miles",
  	"page":"http://chiseloutdoors.com/beta/trails/pioneer_hills/"},

  	{"trail_id":7,"trailhead":{"lat":37.13749,"lng":-113.56435},"trail_name":"T-Bone - 1.9 miles",
  	"page":"http://chiseloutdoors.com/beta/trails/t_bone/"},

  	{"trail_id":8,"trailhead":{"lat":37.23767,"lng":-113.63649},"trail_name":"White Rocks to Stadium - .7 miles",
  	"page":"http://chiseloutdoors.com/beta/trails/white_rocks/"}
  	]}